City_ID,City,Country,Date,Latitude,Longitude,Cloudiness (%),Humidity (%),Max Temp (F),Wind Speed (mph)
0,grytviken,GS,2023-11-08 20:12:34,-54.2811,-36.5092,100,82,39.50600000000003,3.33
1,banda aceh,ID,2023-11-08 20:07:18,5.5577,95.3222,96,74,83.33599999999997,1.93
2,thompson,CA,2023-11-08 20:01:50,55.7435,-97.8558,75,74,28.832000000000015,3.09
3,invercargill,NZ,2023-11-08 20:06:24,-46.4,168.35,37,65,54.28399999999999,4.47
4,ercis,TR,2023-11-08 20:12:35,39.0287,43.3586,24,50,44.11400000000003,1.22
5,adamstown,PN,2023-11-08 20:12:36,-25.066,-130.1015,100,87,72.98599999999996,8.23
6,butembo,CD,2023-11-08 20:12:36,0.15,29.2833,100,96,57.79399999999997,1.7
7,port-aux-francais,TF,2023-11-08 20:12:36,-49.35,70.2167,100,98,42.817999999999984,16.26
8,argo,GR,2023-11-08 20:12:37,37.6333,22.7333,3,79,69.06199999999995,3.3
9,kirensk,RU,2023-11-08 20:12:37,57.7853,108.1119,91,94,10.238000000000046,2.24
10,codrington,AU,2023-11-08 20:09:26,-38.2667,141.9667,44,54,67.06400000000004,4.69
11,eastham,US,2023-11-08 20:12:38,41.8301,-69.9739,0,62,43.214000000000034,3.58
12,petropavlovsk-kamchatsky,RU,2023-11-08 20:02:41,53.0452,158.6483,75,73,32.86400000000003,9.39
13,iqaluit,CA,2023-11-08 20:06:15,63.7506,-68.5145,100,73,21.2,9.77
14,valdivia,CL,2023-11-08 20:08:18,-39.8142,-73.2459,0,95,46.75999999999998,1.27
15,waitangi,NZ,2023-11-08 20:12:39,-43.9535,-176.5597,46,79,55.09399999999997,3.13
16,chauk,MM,2023-11-08 20:08:16,20.8833,94.8167,9,69,82.076,3.1
17,albany,US,2023-11-08 20:06:31,42.6001,-73.9662,100,65,36.28399999999999,1.67
18,keflavik,IS,2023-11-08 20:12:39,64.0049,-22.5624,0,75,41.18000000000004,6.69
19,la passe,FR,2023-11-08 20:12:40,45.5549,-0.8967,100,81,54.248000000000026,2.98
20,talnakh,RU,2023-11-08 20:06:46,69.4865,88.3972,100,94,22.477999999999962,7.97
21,kailua-kona,US,2023-11-08 20:09:26,19.6406,-155.9956,20,80,82.77799999999996,3.6
22,blackmans bay,AU,2023-11-08 20:12:40,-43.0167,147.3167,32,72,71.79800000000003,0.45
23,kodiak,US,2023-11-08 20:12:40,57.79,-152.4072,100,81,38.983999999999995,3.09
24,arendal,NO,2023-11-08 20:12:01,58.4615,8.7725,100,98,37.47200000000004,1.5
25,rongelap,MH,2023-11-08 20:10:54,11.1635,166.8941,49,81,82.27400000000002,10.43
26,tiksi,RU,2023-11-08 20:12:41,71.6872,128.8694,43,98,-7.996000000000002,3.61
27,puerto natales,CL,2023-11-08 20:12:42,-51.7236,-72.4875,4,91,35.977999999999966,2.87
28,bethel,US,2023-11-08 20:06:07,41.3712,-73.414,100,59,41.63000000000004,1.54
29,taiohae,,,,,,,,
30,sitka,US,2023-11-08 20:11:08,57.0531,-135.33,100,71,51.96199999999996,9.77
31,edinburgh of the seven seas,SH,2023-11-08 20:02:08,-37.0676,-12.3116,14,73,56.174000000000014,9.54
32,papatowai,NZ,2023-11-08 20:02:40,-46.5619,169.4708,28,55,52.71799999999999,5.21
33,atafu village,TK,2023-11-08 20:07:12,-8.5421,-172.5159,73,72,84.46999999999997,5.16
34,west island,CC,2023-11-08 20:06:49,-12.1568,96.8225,100,78,82.65199999999999,5.66
35,gazi,GR,2023-11-08 20:12:43,35.3253,25.0669,20,83,63.877999999999965,2.57
36,san luis de la loma,MX,2023-11-08 20:12:43,17.2706,-100.8939,11,91,78.85399999999996,1.3
37,aoulef,DZ,2023-11-08 20:12:43,26.9667,1.0833,100,22,80.88800000000005,1.92
38,whitehorse,CA,2023-11-08 20:03:11,60.7161,-135.0538,100,70,40.24399999999997,9.77
39,santa elena de uairen,VE,2023-11-08 20:07:39,4.6167,-61.1333,22,87,68.77400000000002,1.39
40,noumea,NC,2023-11-08 20:10:37,-22.2763,166.4572,14,58,79.05199999999998,8.06
41,ballycastle,GB,2023-11-08 20:12:44,55.2044,-6.243,66,89,41.70199999999998,5.31
42,weno,FM,2023-11-08 20:12:44,7.4515,151.8468,100,84,84.41600000000001,5.14
43,isafjordur,IS,2023-11-08 20:12:44,66.0755,-23.124,88,73,41.432000000000016,12.92
44,kolpashevo,RU,2023-11-08 20:12:45,58.3131,82.9089,99,94,24.385999999999967,4.02
45,novaya igirma,RU,2023-11-08 20:12:45,57.1334,103.9112,29,73,12.109999999999978,1.27
46,bokajan,IN,2023-11-08 20:12:45,26.0167,93.7833,0,75,73.32799999999997,1.31
47,alliance,US,2023-11-08 20:12:22,40.9153,-81.1059,37,66,53.47400000000002,5.95
48,kaltungo,NG,2023-11-08 20:12:46,9.8142,11.3089,27,33,74.19200000000001,2.13
49,la ronge,CA,2023-11-08 20:12:46,55.1001,-105.2842,100,93,32.522000000000034,2.57
50,inhambane,MZ,2023-11-08 20:07:03,-23.865,35.3833,40,88,68.25199999999998,2.06
51,jiehu,CN,2023-11-08 20:12:47,35.5428,118.455,100,50,60.242,7.61
52,ewo,CG,2023-11-08 20:12:21,-0.8725,14.8206,96,93,73.66999999999996,1.28
53,qaqortoq,GL,2023-11-08 20:11:36,60.7167,-46.0333,100,97,33.04399999999997,1.98
54,ribeira grande,PT,2023-11-08 20:12:47,38.5167,-28.7,100,97,69.04399999999998,4.92
55,santyoku,KR,2023-11-08 20:12:47,37.4406,129.1708,40,40,65.48000000000005,4.34
56,pekanbaru,ID,2023-11-08 20:12:48,0.5333,101.45,40,79,84.79399999999998,2.57
57,coquimbo,CL,2023-11-08 20:12:48,-29.9533,-71.3436,20,88,59.0,3.6
58,kahta,TR,2023-11-08 20:12:48,37.7855,38.6237,0,50,55.11199999999995,2.06
59,rameswaram,IN,2023-11-08 20:12:49,9.2833,79.3,100,72,82.43599999999998,1.56
60,katsuura,JP,2023-11-08 20:12:49,35.1333,140.3,78,53,68.41400000000004,2.68
61,andergrove,AU,2023-11-08 20:12:49,-21.0833,149.1833,16,47,82.92200000000004,5.32
62,ulladulla,AU,2023-11-08 20:12:21,-35.35,150.4667,97,38,83.37200000000004,0.68
63,perelyub,RU,2023-11-08 20:12:50,51.8667,50.3667,100,93,43.088000000000044,3.02
64,taltal,CL,2023-11-08 20:10:21,-25.4,-70.4833,42,85,60.15199999999997,0.53
65,portland,US,2023-11-08 20:09:52,45.5234,-122.6762,0,90,47.65999999999998,0.45
66,cururupu,BR,2023-11-08 20:08:31,-1.8283,-44.8683,100,87,77.30600000000004,2.09
67,port saint john's,ZA,2023-11-08 20:07:47,-31.6229,29.5448,100,87,64.92200000000004,2.66
68,puerto ayora,EC,2023-11-08 20:06:24,-0.7393,-90.3518,92,93,76.81999999999996,4.47
69,maych'ew,ET,2023-11-08 20:12:50,12.7875,39.5422,99,86,52.592,4.04
70,key west,US,2023-11-08 20:12:51,24.5557,-81.7826,0,78,79.06999999999996,4.12
71,luderitz,NA,2023-11-08 20:12:51,-26.6481,15.1594,0,74,58.87400000000001,11.3
72,olonkinbyen,SJ,2023-11-08 20:06:29,70.9221,-8.7187,94,74,31.31600000000001,4.41
73,st. john's,CA,2023-11-08 20:07:59,47.5649,-52.7093,100,99,45.55399999999995,0.45
74,charters towers,AU,2023-11-08 20:12:51,-20.1,146.2667,10,29,90.76999999999995,2.22
75,margaret river,AU,2023-11-08 20:12:52,-33.95,115.0667,100,63,60.96199999999996,8.86
76,klaksvik,FO,2023-11-08 20:12:52,62.2266,-6.589,99,88,43.98800000000004,8.99
77,quellon,CL,2023-11-08 20:11:10,-43.1167,-73.6167,81,84,45.751999999999974,2.6
78,ciudad acuna,MX,2023-11-08 20:12:52,29.3232,-100.9522,0,73,73.958,1.54
79,xining,CN,2023-11-08 20:12:52,36.6167,101.7667,0,30,38.858000000000004,0.84
80,crane,US,2023-11-08 20:12:53,31.3974,-102.3501,99,25,78.99800000000002,1.97
81,yellowknife,CA,2023-11-08 20:06:14,62.456,-114.3525,75,93,18.391999999999996,1.54
82,ilulissat,GL,2023-11-08 20:07:20,69.2167,-51.1,100,93,28.688000000000045,0
83,susuman,RU,2023-11-08 20:08:42,62.7833,148.1667,85,95,-12.046,0.97
84,tosontsengel,MN,2023-11-08 20:12:53,48.7567,98.2839,99,84,4.064000000000032,1.59
85,kapa'a,US,2023-11-08 20:06:17,22.0752,-159.319,75,80,82.65199999999999,4.63
86,talcahuano,CL,2023-11-08 20:12:54,-36.7167,-73.1167,0,87,53.54600000000005,4.12
87,esperanza,DO,2023-11-08 20:12:54,19.5847,-70.9849,1,88,77.75600000000003,0.45
88,candido mendes,BR,2023-11-08 20:12:54,-1.4467,-45.7167,96,80,79.95199999999997,3.29
89,belleville,CA,2023-11-08 20:12:55,44.1788,-77.3705,100,81,35.34800000000003,3.6
90,ushuaia,AR,2023-11-08 20:12:02,-54.8,-68.3,75,96,40.92799999999996,2.24
91,afaahiti,PF,2023-11-08 20:06:49,-17.75,-149.2833,96,86,80.33000000000004,9.83
92,ust-nera,RU,2023-11-08 20:12:55,64.5667,143.2,30,97,-12.945999999999998,1.83
93,port mathurin,MU,2023-11-08 20:12:56,-19.6833,63.4167,3,72,77.32400000000001,8.4
94,janeng,BW,2023-11-08 20:12:56,-25.4167,25.55,0,72,64.30999999999997,3.88
95,galveston,US,2023-11-08 20:08:14,29.3669,-94.9669,0,86,73.77799999999996,3.6
96,wailua homesteads,US,2023-11-08 20:01:28,22.0669,-159.378,75,80,81.30199999999998,4.63
97,chinchilla,AU,2023-11-08 20:12:56,-26.75,150.6333,23,32,83.62400000000002,1.53
98,dalbandin,PK,2023-11-08 20:12:57,28.8947,64.4101,0,52,64.85,1.58
99,aleg,MR,2023-11-08 20:12:57,17.0481,-13.9209,48,19,74.35399999999996,3.79
100,bontang,ID,2023-11-08 20:12:57,0.1333,117.5,100,67,85.90999999999998,2.68
101,fuglafjordur,FO,2023-11-08 20:12:57,62.244,-6.814,99,88,43.538000000000046,8.76
102,tamanrasset,DZ,2023-11-08 20:12:58,22.785,5.5228,34,17,65.40800000000002,4.15
103,guerrero negro,MX,2023-11-08 20:12:45,27.9769,-114.0611,59,67,67.51400000000004,6.33
104,cabo san lucas,MX,2023-11-08 20:06:37,22.8909,-109.9124,100,76,81.03200000000001,1.54
105,griffith,US,2023-11-08 20:09:44,41.5284,-87.4237,100,87,54.48200000000001,5.66
106,le port,RE,2023-11-08 20:12:59,-20.9373,55.2919,0,82,79.15999999999998,7.49
107,hermanus,ZA,2023-11-08 20:12:59,-34.4187,19.2345,0,85,53.366000000000014,3.03
108,vila franca do campo,PT,2023-11-08 20:11:56,37.7167,-25.4333,100,99,69.15199999999999,3.44
109,palu,ID,2023-11-08 20:13:00,-0.8917,119.8707,95,59,87.63800000000005,1.87
110,barra do corda,BR,2023-11-08 20:13:00,-5.5,-45.25,71,68,78.81799999999998,1.41
111,bilibino,RU,2023-11-08 20:07:02,68.0546,166.4372,100,94,3.4339999999999904,1.2
112,angol,CL,2023-11-08 20:13:00,-37.8,-72.7167,9,75,50.288000000000046,2.94
113,alampur,IN,2023-11-08 20:13:01,15.8833,78.15,100,77,78.78200000000001,3.04
114,mezzolombardo,IT,2023-11-08 20:13:01,46.209,11.0968,73,65,46.63399999999999,0.45
115,latakia,SY,2023-11-08 20:13:01,35.5148,35.7768,48,71,71.43800000000005,1.08
116,shingu,JP,2023-11-08 20:10:04,33.7333,135.9833,100,80,68.75600000000003,2.22
117,onguday,RU,2023-11-08 20:13:02,50.75,86.15,89,90,27.553999999999952,0.71
118,kruisfontein,ZA,2023-11-08 20:10:53,-34.0033,24.7314,0,80,51.943999999999974,2.68
119,gornyatskiy,RU,2023-11-08 20:13:02,48.2915,40.9575,100,68,50.39600000000005,7.78
120,avarua,CK,2023-11-08 20:04:08,-21.2078,-159.775,40,69,77.32400000000001,6.69
121,lae,PG,2023-11-08 20:10:07,-6.7221,146.9847,58,72,84.10999999999999,4.57
122,tutoia,BR,2023-11-08 20:13:03,-2.7619,-42.2744,11,88,79.50199999999998,5.07
123,port victoria,KE,2023-11-08 20:13:04,0.0939,33.9756,100,84,68.39600000000004,2.73
124,badger,US,2023-11-08 20:06:02,64.8,-147.5333,75,74,28.543999999999972,2.06
125,fale old settlement,TK,2023-11-08 20:10:40,-9.3852,-171.2468,95,69,84.25399999999996,4.58
126,olyokminsk,RU,2023-11-08 20:13:05,60.3736,120.4264,100,78,5.090000000000021,0.97
127,tuba city,US,2023-11-08 20:13:05,36.135,-111.2399,2,37,44.653999999999954,1.79
128,jiayuguan,CN,2023-11-08 20:13:05,39.8167,98.3,8,32,36.82400000000001,4.3
129,kendari,ID,2023-11-08 20:13:06,-3.945,122.4989,18,40,94.26199999999996,2.16
130,lompoc,US,2023-11-08 20:09:02,34.6391,-120.4579,0,70,61.86199999999995,8.05
131,lihue,US,2023-11-08 20:02:45,21.9789,-159.3672,75,75,81.91400000000004,4.63
132,hadibu,YE,2023-11-08 20:12:26,12.65,54.0333,6,71,80.16799999999998,4.27
133,bredasdorp,ZA,2023-11-08 20:01:30,-34.5322,20.0403,0,82,52.66400000000003,0.96
134,hami,CN,2023-11-08 20:06:33,42.8,93.45,100,23,46.13000000000004,0.21
135,santa rosa de rio primero,AR,2023-11-08 20:13:07,-31.1523,-63.4019,0,31,64.16600000000001,3.76
136,port lincoln,AU,2023-11-08 20:13:07,-34.7333,135.8667,0,29,82.292,4.99
137,lospalos,TL,2023-11-08 20:13:07,-8.5186,127.0025,3,25,95.12599999999999,2.98
138,kasane,BW,2023-11-08 20:13:07,-17.8167,25.15,16,56,73.02200000000005,2.05
139,jamestown,US,2023-11-08 20:05:30,42.097,-79.2353,100,50,50.288000000000046,9.26
140,muroto-misakicho,JP,2023-11-08 20:12:12,33.2833,134.15,99,67,72.21199999999996,1.84
141,las heras,AR,2023-11-08 20:11:13,-46.5419,-68.9359,100,40,52.05199999999998,7.51
142,cananeia,BR,2023-11-08 20:13:08,-25.0147,-47.9267,98,92,69.25999999999999,0.31
143,college,US,2023-11-08 20:07:10,64.8569,-147.8028,75,74,30.793999999999972,3.09
144,longyearbyen,SJ,2023-11-08 20:06:03,78.2186,15.6401,75,80,26.708000000000006,5.66
145,ambikapur,IN,2023-11-08 20:13:09,23.1167,83.2,16,48,70.23200000000003,1.42
146,sinabang,ID,2023-11-08 20:12:46,2.4803,96.3801,100,77,82.00399999999996,1.04
147,taoudenni,ML,2023-11-08 20:12:43,22.6783,-3.9836,0,30,70.28599999999997,3.09
148,staryye ozinki,RU,2023-11-08 20:13:09,51.1786,49.6769,100,88,44.38399999999999,3.77
149,tashtagol,RU,2023-11-08 20:10:17,52.7657,87.8894,99,96,28.79600000000005,1.34
150,flying fish cove,CX,2023-11-08 20:13:09,-10.4217,105.6791,100,83,82.34600000000006,4.63
151,warrnambool,AU,2023-11-08 20:13:10,-38.3833,142.4833,15,47,69.96199999999996,4.81
152,fizuli,AZ,2023-11-08 20:13:10,39.5771,47.4084,72,63,44.76199999999996,1.3
153,kapuskasing,CA,2023-11-08 20:13:10,49.4169,-82.4331,100,86,26.95999999999998,4.63
154,horta,PT,2023-11-08 20:06:01,38.5333,-28.6333,100,98,68.28800000000004,4.92
155,madang,PG,2023-11-08 20:13:11,-5.2246,145.7966,93,62,87.54800000000003,2.73
156,salinopolis,BR,2023-11-08 20:07:13,-0.6136,-47.3561,87,81,79.96999999999997,3.49
157,pinhao,BR,2023-11-08 20:13:11,-25.6956,-51.6597,76,88,64.54399999999998,1.96
158,la grande,US,2023-11-08 20:13:11,45.3246,-118.0877,0,83,40.33399999999999,1.62
159,sona,IT,2023-11-08 20:13:11,45.4388,10.8255,40,93,49.51400000000004,1.03
160,quang ngai,VN,2023-11-08 20:13:12,15.1167,108.8,100,73,84.66799999999998,0.78
161,ketchikan,US,2023-11-08 20:08:34,55.3422,-131.6461,100,87,53.851999999999975,12.35
162,lorengau,PG,2023-11-08 20:11:07,-2.0226,147.2712,62,74,85.80199999999998,5.5
163,hithadhoo,MV,2023-11-08 20:13:12,-0.6,73.0833,86,81,81.608,5.74
164,gadzhiyevo,RU,2023-11-08 20:13:13,69.2551,33.3362,100,65,29.24600000000005,2.38
165,livingston,GB,2023-11-08 20:13:13,55.9029,-3.5226,0,85,40.36999999999996,3.6
166,uturoa,PF,2023-11-08 20:13:13,-16.7333,-151.4333,17,79,79.142,9.32
167,stanley,GB,2023-11-08 20:13:13,54.868,-1.6985,75,93,41.99000000000002,1.54
168,normal,US,2023-11-08 20:09:19,40.5142,-88.9906,100,87,55.00399999999995,9.39
169,ormara,PK,2023-11-08 20:09:05,25.2088,64.6357,0,55,79.28599999999997,2.63
170,vilyuchinsk,RU,2023-11-08 20:12:44,52.9306,158.4028,7,65,34.34000000000002,4.98
171,sao gabriel da cachoeira,BR,2023-11-08 20:13:14,-0.1303,-67.0892,90,93,75.2,0.47
172,uige,AO,2023-11-08 20:13:14,-7.6087,15.0613,100,99,67.44200000000001,0.84
173,anadyr,RU,2023-11-08 20:03:51,64.75,177.4833,75,73,25.574000000000012,10
174,saldanha,ZA,2023-11-08 20:10:34,-33.0117,17.9442,0,84,57.685999999999964,6.48
175,puerto san jose,GT,2023-11-08 20:13:15,13.9256,-90.8244,40,90,78.06199999999995,1.18
176,atherton,GB,2023-11-08 20:11:54,53.5237,-2.4935,100,89,46.16600000000001,0.45
177,camana,PE,2023-11-08 20:13:15,-16.6228,-72.7111,98,87,66.95600000000003,1.28
178,arraial do cabo,BR,2023-11-08 20:04:10,-22.9661,-42.0278,0,73,73.52599999999998,9.26
179,mount pearl,CA,2023-11-08 20:13:16,47.5166,-52.7813,100,99,44.725999999999985,2.06
180,ravar,IR,2023-11-08 20:13:16,31.2656,56.8055,0,51,57.07400000000001,1.83
181,port elizabeth,ZA,2023-11-08 20:08:03,-33.918,25.5701,0,81,56.58800000000005,0.89
182,severo-yeniseyskiy,RU,2023-11-08 20:13:16,60.3725,93.0408,7,92,4.838000000000044,1.34
183,san sebastian de la gomera,ES,2023-11-08 20:13:16,28.0916,-17.1133,0,68,70.43000000000004,6.17
184,alice springs,AU,2023-11-08 20:10:37,-23.7,133.8833,98,26,85.81999999999996,2.57
185,andirin,TR,2023-11-08 20:13:17,37.5776,36.3549,100,69,51.727999999999966,0.73
186,glen innes,AU,2023-11-08 20:13:17,-29.7333,151.7333,69,55,69.31400000000004,1.14
187,torbeyevo,RU,2023-11-08 20:13:18,54.0797,43.2473,100,87,42.998000000000026,3.08
188,pervomayskiy,RU,2023-11-08 20:13:18,53.2485,40.2871,100,94,43.86199999999995,2.1
189,hawaiian paradise park,US,2023-11-08 20:13:18,19.5933,-154.9731,100,82,78.584,3.6
190,pagar alam,ID,2023-11-08 20:13:18,-4.0167,103.2667,100,41,85.13599999999997,2.05
191,udachny,RU,2023-11-08 20:07:44,66.4167,112.4,85,85,0.10400000000000276,2.79
192,nagqu,CN,2023-11-08 20:08:26,31.5,92,100,39,21.29000000000002,1.89
193,novyy turtkul',UZ,2023-11-08 20:13:19,41.55,61.0167,5,65,42.98000000000004,2.98
194,qaisumah,SA,2023-11-08 20:13:19,28.3112,46.1273,0,44,61.03399999999999,1.03
195,klyuchi,RU,2023-11-08 20:06:45,52.2667,79.1667,21,52,33.49399999999997,3.56
196,monrovia,LR,2023-11-08 20:13:19,6.3005,-10.7969,100,85,73.43599999999998,2.38
197,khadan khak,PK,2023-11-08 20:13:20,30.7477,67.7085,2,85,47.93000000000004,2.88
198,puerto san carlos,,,,,,,,
199,kuanda,RU,2023-11-08 20:13:20,56.3161,116.0806,15,49,12.235999999999965,1.09
200,boende,CD,2023-11-08 20:13:20,-0.2167,20.8667,100,99,72.842,0.87
201,medowie,AU,2023-11-08 20:13:21,-32.7333,151.8667,40,61,84.74000000000002,6.17
202,tura,IN,2023-11-08 20:13:21,25.5198,90.2201,0,65,71.834,1.45
203,remire-montjoly,GF,2023-11-08 20:12:15,4.9167,-52.2667,0,94,77.30600000000004,0
204,buka,UZ,2023-11-08 20:10:29,40.8108,69.1986,95,64,54.30199999999998,1.84
205,tanjung sepat,MY,2023-11-08 20:09:23,2.6579,101.5629,40,74,86.41400000000004,3.09
206,thunder bay,CA,2023-11-08 20:09:45,48.4001,-89.3168,100,97,37.99399999999997,1.73
207,itoman,JP,2023-11-08 20:09:07,26.1247,127.6694,75,74,84.48800000000006,6.69
208,hakha,MM,2023-11-08 20:13:22,22.65,93.6167,13,50,66.308,1.08
209,labruguiere,FR,2023-11-08 20:13:22,43.5386,2.2639,0,78,54.57200000000004,9.77
210,tralee,IE,2023-11-08 20:07:42,52.2704,-9.7026,94,76,46.61600000000001,10.29
211,berezovyy,RU,2023-11-08 20:13:22,51.6667,135.7,100,65,26.65399999999995,0.83
212,riviere-du-loup,CA,2023-11-08 20:13:23,47.8304,-69.5342,0,59,29.551999999999975,5.14
213,ta`u,AS,2023-11-08 20:13:23,-14.2336,-169.5144,100,81,80.6,3.6
214,hwange,ZW,2023-11-08 20:13:23,-18.3693,26.5019,83,53,78.09800000000003,3.14
215,polevskoy,RU,2023-11-08 20:13:23,56.4422,60.1878,100,98,35.708000000000006,3.69
216,palopo,ID,2023-11-08 20:13:24,-2.9996,120.1921,31,54,93.10999999999999,2.99
217,sao cristovao,BR,2023-11-08 20:13:24,-11.0147,-37.2064,75,83,78.98000000000005,1.54
218,qui nhon,VN,2023-11-08 20:13:24,13.7667,109.2333,98,78,83.03000000000004,1.13
219,aasiaat,GL,2023-11-08 20:07:34,68.7098,-52.8699,100,81,24.116000000000007,1.16
220,cochrane,CA,2023-11-08 20:13:25,51.1834,-114.4687,100,64,35.780000000000044,1.03
221,vorgashor,RU,2023-11-08 20:13:25,67.5833,63.95,100,98,32.377999999999965,2.82
222,kulia village,,,,,,,,
223,utrik,MH,2023-11-08 20:08:08,11.2278,169.8474,77,82,82.49000000000002,9.48
224,fort st. john,CA,2023-11-08 20:12:59,56.2499,-120.8529,20,69,35.76199999999996,6.69
225,haiku-pauwela,US,2023-11-08 20:13:19,20.9219,-156.3051,40,64,80.88800000000005,4.63
226,nadym,RU,2023-11-08 20:13:26,65.5333,72.5167,100,81,29.60600000000003,6.78
227,kemijarvi,FI,2023-11-08 20:13:26,66.7131,27.4306,100,96,25.591999999999995,2.49
228,nikolayevsk-on-amure,RU,2023-11-08 20:06:18,53.1406,140.73,100,90,25.25,1.75
229,fort bragg,US,2023-11-08 20:13:27,35.139,-79.006,0,78,64.50800000000001,2.06
230,tot'ma,RU,2023-11-08 20:13:27,59.9747,42.7642,100,94,39.86600000000001,1.16
231,miles city,US,2023-11-08 20:13:09,46.4083,-105.8406,100,75,36.842,3.6
232,preobrazheniye,RU,2023-11-08 20:13:27,42.9019,133.9064,100,99,42.458000000000006,1.41
233,ceeldheer,SO,2023-11-08 20:11:06,3.8488,47.1806,58,86,79.34000000000003,4.67
234,bamboo flat,IN,2023-11-08 20:11:26,11.7,92.7167,40,74,86.35999999999999,3.09
235,uvinza,TZ,2023-11-08 20:13:28,-5.1036,30.3911,100,96,66.45199999999997,1.44
236,albina,SR,2023-11-08 20:13:28,5.5,-54.05,43,90,76.58599999999997,1.4
237,marau,BR,2023-11-08 20:13:28,-28.4492,-52.2,36,84,70.62799999999996,4.33
238,illela,NG,2023-11-08 20:13:29,13.7292,5.2975,36,13,76.04600000000005,4.43
239,neiafu,TO,2023-11-08 20:06:09,-18.65,-173.9833,75,83,81.55399999999995,3.09
240,walvis bay,NA,2023-11-08 20:10:03,-22.9575,14.5053,0,92,56.35399999999996,2.82
241,tambuwal,NG,2023-11-08 20:13:29,12.4039,4.6469,88,18,75.36199999999997,2.67
242,polyarnyy,RU,2023-11-08 20:13:29,69.1989,33.4478,98,95,16.538000000000046,1.87
243,nelson bay,AU,2023-11-08 20:13:30,-32.7167,152.15,100,75,79.358,9.39
244,sanctuary point,AU,2023-11-08 20:13:30,-35.1114,150.629,100,93,69.02599999999998,3.19
245,alvaraes,BR,2023-11-08 20:13:30,-3.2208,-64.8042,100,98,73.70600000000003,1.31
246,plettenberg bay,ZA,2023-11-08 20:12:30,-34.0527,23.3716,0,87,51.38599999999997,1.5
247,zeya,RU,2023-11-08 20:13:31,53.75,127.2667,100,62,20.75,1.77
248,gongzhuling,CN,2023-11-08 20:13:31,43.5008,124.8198,100,79,27.877999999999965,4.59
249,inirida,CO,2023-11-08 20:13:32,3.8653,-67.9239,76,95,74.75,0.75
250,kingston,JM,2023-11-08 20:10:09,17.997,-76.7936,20,78,81.82400000000001,2.57
251,gilgit,PK,2023-11-08 20:13:32,35.9221,74.3087,100,47,54.53599999999997,1.98
252,heihe,CN,2023-11-08 20:13:32,50.2441,127.4902,20,69,18.446000000000048,1.01
253,dongsheng,CN,2023-11-08 20:09:52,39.8161,109.9776,1,28,22.622000000000035,3.17
254,barrowford,GB,2023-11-08 20:13:33,53.8465,-2.2184,99,93,45.842,3.71
255,cole harbour,CA,2023-11-08 20:13:34,44.6724,-63.4751,98,74,34.25,8.05
256,biloela,AU,2023-11-08 20:13:34,-24.4167,150.5,2,26,89.58200000000002,2.98
257,howrah,IN,2023-11-08 20:08:56,22.5892,88.3103,2,69,79.06999999999996,2.06
258,bardai,NG,2023-11-08 20:13:34,11.65,7.2333,70,22,72.93200000000002,2.48
259,mo i rana,NO,2023-11-08 20:13:35,66.3128,14.1428,99,93,25.538000000000046,0
260,fortuna,US,2023-11-08 20:09:18,40.5982,-124.1573,0,92,48.91999999999996,0
261,lodja,CD,2023-11-08 20:13:36,-3.4833,23.4333,89,99,69.69200000000001,0.99
262,disa,IN,2023-11-08 20:13:36,24.25,72.1667,29,36,80.34800000000003,1.97
263,sogndal,NO,2023-11-08 20:13:37,61.2283,7.1003,100,100,36.248000000000026,2.57
264,pearsall,US,2023-11-08 20:13:37,28.8922,-99.095,96,69,78.458,4.27
265,phang nga,TH,2023-11-08 20:13:37,8.4509,98.5298,68,66,88.10600000000002,0.34
266,kasama,ZM,2023-11-08 20:13:38,-10.2129,31.1808,76,65,67.51400000000004,0.83
267,rayadrug,IN,2023-11-08 20:13:39,14.7,76.8667,54,78,76.316,4.11
268,agropoli,IT,2023-11-08 20:13:39,40.3469,14.9966,0,67,52.358000000000004,3.93
269,labytnangi,RU,2023-11-08 20:08:10,66.6572,66.4183,100,99,24.98000000000004,0.45
270,punta arenas,CL,2023-11-08 20:02:33,-53.15,-70.9167,20,70,39.57799999999996,3.09
271,macusani,PE,2023-11-08 20:13:39,-14.0833,-70.4333,100,82,40.280000000000044,1.39
272,grand falls-windsor,CA,2023-11-08 20:12:18,48.9332,-55.6649,100,94,37.77799999999996,2.68
273,harstad,NO,2023-11-08 20:13:40,68.799,16.5293,14,85,34.43000000000004,4.15
274,pacific grove,US,2023-11-08 20:09:51,36.6177,-121.9166,0,77,56.93000000000004,2.06
275,khandyga,RU,2023-11-08 20:08:38,62.6667,135.6,45,93,-14.601999999999975,0.45
276,enewetak,MH,2023-11-08 20:13:40,11.3474,162.3373,84,72,83.31799999999998,9.86
277,chegdomyn,RU,2023-11-08 20:13:40,51.1167,133.0167,100,71,24.29600000000005,2.76
278,novaya mayna,RU,2023-11-08 20:13:41,54.15,49.75,44,95,39.84800000000003,2.05
279,east london,ZA,2023-11-08 20:04:32,-33.0153,27.9116,0,81,60.656000000000034,3.02
280,espargos,,,,,,,,
281,amga,RU,2023-11-08 20:13:41,60.8953,131.9608,67,90,-3.009999999999984,0.88
282,malango,ID,2023-11-08 20:03:40,-2.9627,119.9001,63,47,85.98200000000003,1.99
283,micheweni,TZ,2023-11-08 20:13:41,-4.9667,39.8333,35,77,80.52799999999996,2.78
284,presidente medici,BR,2023-11-08 20:12:00,-11.1753,-61.9014,19,67,78.61999999999996,2.13
285,dadukou,CN,2023-11-08 20:13:42,26.5479,101.7054,2,50,70.934,1.21
286,bedele,ET,2023-11-08 20:13:42,8.456,36.353,56,97,53.150000000000006,1.2
287,pisco,PE,2023-11-08 20:06:25,-13.7,-76.2167,0,82,66.52400000000002,4.12
288,salur,IN,2023-11-08 20:13:42,18.5333,83.2167,45,41,80.50999999999999,0.72
289,pitimbu,BR,2023-11-08 20:13:42,-7.4706,-34.8086,1,87,76.06400000000004,2.61
290,shimoda,JP,2023-11-08 20:13:43,34.6667,138.95,100,60,66.83000000000004,0.76
291,dawesville,US,2023-11-08 20:13:43,30.9224,-84.0091,0,80,64.63399999999999,2.06
292,takamaka,,,,,,,,
293,sal rei,CV,2023-11-08 20:09:19,16.1833,-22.9167,98,69,75.90199999999999,8.49
294,urangan,AU,2023-11-08 20:13:43,-25.3,152.9,0,51,76.45999999999998,5.12
295,saratamata,,,,,,,,
296,puerto baquerizo moreno,EC,2023-11-08 20:08:51,-0.9,-89.6,97,82,76.424,6.19
297,ishigaki,JP,2023-11-08 20:13:44,24.3448,124.1572,75,61,84.59600000000006,3.6
298,dudinka,RU,2023-11-08 20:13:44,69.4058,86.1778,100,92,22.891999999999996,12.96
299,mosjoen,NO,2023-11-08 20:13:44,65.836,13.1908,20,100,21.991999999999997,0
300,richards bay,ZA,2023-11-08 20:12:09,-28.783,32.0377,100,83,65.37200000000004,0.89
301,hamilton,US,2023-11-08 20:13:44,39.1834,-84.5333,100,61,75.03800000000004,7.2
302,maceio,BR,2023-11-08 20:09:06,-9.6658,-35.7353,0,88,74.91199999999995,0.51
303,birao,CF,2023-11-08 20:13:45,10.2849,22.7882,81,56,75.83000000000004,2.53
304,colimes,EC,2023-11-08 20:11:58,-1.55,-80.0167,68,70,80.31199999999995,2.52
305,queenstown,ZA,2023-11-08 20:13:45,-31.8976,26.8753,76,88,54.71600000000001,1.4
306,papao,PF,2023-11-08 20:06:00,-17.75,-149.55,59,82,81.93200000000002,11.73
307,toga village,,,,,,,,
308,newman,US,2023-11-08 20:13:46,37.3138,-121.0208,0,65,57.55999999999998,1.34
309,chinde,NP,2023-11-08 20:13:46,26.8418,88.0763,8,74,61.95199999999998,1.5
310,karratha,AU,2023-11-08 20:09:30,-20.7377,116.8463,0,20,98.79800000000003,5.94
311,carloforte,IT,2023-11-08 20:13:46,39.145,8.3058,100,56,63.5,2.68
312,munchenbuchsee,CH,2023-11-08 20:13:46,47.0218,7.4504,100,82,41.75600000000003,1.03
313,rawai,TH,2023-11-08 20:13:47,7.7797,98.3253,86,71,88.17799999999997,1.37
314,grand island,US,2023-11-08 20:10:27,40.925,-98.342,0,53,45.464000000000034,4.63
315,namibe,AO,2023-11-08 20:13:47,-15.1961,12.1522,1,81,68.14399999999998,1.62
316,port alfred,ZA,2023-11-08 20:08:50,-33.5906,26.891,29,93,55.45399999999995,4.62
317,manay,PH,2023-11-08 20:09:44,7.215,126.5397,48,69,86.46799999999999,4.35
318,bakchar,RU,2023-11-08 20:13:47,57.0186,82.0711,64,96,23.738000000000042,2.78
319,am timan,TD,2023-11-08 20:13:48,11.0297,20.2827,100,38,79.55600000000004,2.85
320,kerikeri,NZ,2023-11-08 20:08:53,-35.2268,173.9474,36,67,68.18000000000004,0.45
321,arawa,PG,2023-11-08 20:13:48,-6.2132,155.5367,100,77,83.19200000000001,2.9
322,meadow lake,US,2023-11-08 20:13:48,34.8014,-106.5436,20,29,56.39000000000002,2.47
323,lincoln city,US,2023-11-08 20:13:48,44.9582,-124.0179,0,87,49.064000000000036,4.02
324,lerwick,GB,2023-11-08 20:13:49,60.1545,-1.1494,34,75,46.66999999999996,7.62
325,antsiranana,MG,2023-11-08 20:13:49,-12.2787,49.2917,35,80,77.558,6.4
326,nadi,FJ,2023-11-08 20:12:22,-17.8,177.4167,100,69,82.66999999999996,2.57
327,vanimo,PG,2023-11-08 20:08:13,-2.6741,141.3028,90,82,84.092,4.36
328,iskateley,RU,2023-11-08 20:07:21,67.6803,53.1512,100,100,33.29600000000005,4.02
329,antofagasta,CL,2023-11-08 20:08:59,-23.65,-70.4,52,82,63.95,0.97
330,geraldton,AU,2023-11-08 20:10:24,-28.7667,114.6,40,50,75.88399999999999,7.2
331,goderich,CA,2023-11-08 20:13:50,43.7501,-81.7165,100,93,36.193999999999974,8.23
332,georgetown,MY,2023-11-08 20:03:31,5.4112,100.3354,20,77,86.21600000000001,2.06
333,kokopo,PG,2023-11-08 20:13:50,-4.352,152.2633,100,85,80.76199999999996,2.92
334,ushtobe,KZ,2023-11-08 20:13:50,45.2514,77.9838,99,46,50.66600000000001,2.91
335,glace bay,CA,2023-11-08 20:13:50,46.1969,-59.957,100,91,38.15600000000003,5.14
336,sovetskaya gavan',RU,2023-11-08 20:13:51,48.9723,140.2878,99,90,35.38399999999999,3.94
337,sparti,GR,2023-11-08 20:13:51,37.0733,22.4297,0,72,64.21999999999997,2.63
338,lagos,NG,2023-11-08 20:02:17,6.5833,3.75,75,88,78.09800000000003,1.79
339,carnarvon,AU,2023-11-08 20:02:49,-24.8667,113.6333,0,60,75.12799999999996,7.92
340,mitchell,US,2023-11-08 20:12:24,43.7094,-98.0298,0,55,35.851999999999975,5.14
341,chiredzi,ZW,2023-11-08 20:13:51,-21.05,31.6667,52,77,67.73000000000005,2
342,brookings,US,2023-11-08 20:05:16,44.3114,-96.7984,0,70,39.45199999999998,5.14
343,poronaysk,RU,2023-11-08 20:13:51,49.2167,143.1167,100,95,32.21600000000001,1.85
344,kidal,ML,2023-11-08 20:13:52,18.4411,1.4078,11,14,75.61400000000003,1.62
345,yuzhno-kurilsk,RU,2023-11-08 20:06:58,44.0306,145.8556,99,71,48.650000000000006,6.55
346,korla,CN,2023-11-08 20:13:52,41.7597,86.1469,41,24,52.44800000000002,1.55
347,baruun-urt,MN,2023-11-08 20:09:18,46.6806,113.2792,63,84,6.314000000000032,5.37
348,i-n-salah,DZ,2023-11-08 20:13:52,27.1935,2.4607,53,17,73.21999999999997,4.85
349,prince rupert,CA,2023-11-08 20:12:06,54.3161,-130.3201,100,81,51.76400000000004,8.23
350,kolobrzeg,PL,2023-11-08 20:11:57,54.1757,15.5834,100,83,45.42799999999996,8.62
351,malanje,AO,2023-11-08 20:13:53,-9.5402,16.341,100,99,63.01400000000004,0.37
352,flores,GT,2023-11-08 20:13:53,16.9226,-89.8994,84,88,73.4,1.37
353,vilyuysk,RU,2023-11-08 20:06:20,63.7553,121.6247,100,93,2.1199999999999584,2.5
354,qarqaraly,KZ,2023-11-08 20:13:03,49.4058,75.4742,77,34,37.25600000000003,3.01
355,ilha de mocambique,MZ,2023-11-08 20:13:53,-15.0342,40.7358,30,86,77.46799999999999,3.51
356,zainsk,RU,2023-11-08 20:13:54,55.3195,52.0694,92,94,44.05999999999998,2.35
357,lebu,CL,2023-11-08 20:13:54,-37.6167,-73.65,3,87,52.66400000000003,10.89
358,caleta de carquin,PE,2023-11-08 20:13:54,-11.0925,-77.6267,34,85,65.01199999999996,5.61
359,mawlaik,MM,2023-11-08 20:13:54,23.6333,94.4167,95,72,72.98599999999996,0.45
360,constantia,RO,2023-11-08 20:07:16,44.1833,28.65,99,57,47.35399999999995,8.42
361,cascais,PT,2023-11-08 20:13:55,38.6979,-9.4215,100,92,62.20399999999995,9.83
362,visakhapatnam,IN,2023-11-08 20:13:21,17.69,83.2093,20,78,80.76199999999996,1.54
363,mount gambier,AU,2023-11-08 20:09:42,-37.8333,140.7667,8,45,70.91600000000001,3.62
364,mikuni,JP,2023-11-08 20:13:55,36.2171,136.1519,65,58,71.31199999999995,5.43
365,happy valley-goose bay,CA,2023-11-08 20:08:21,53.3168,-60.3315,100,95,29.966000000000008,6.65
366,timbuktu,ML,2023-11-08 20:13:55,16.7735,-3.0074,71,21,76.00999999999999,3.99
367,keningau,MY,2023-11-08 20:13:55,5.3378,116.1602,98,56,88.43000000000004,0.33
368,guiberoua,CI,2023-11-08 20:13:56,6.2392,-6.1727,100,100,72.21199999999996,1.14
369,okhotsk,RU,2023-11-08 20:08:16,59.3833,143.3,3,81,6.890000000000018,6.66
370,sabha,LY,2023-11-08 20:13:56,27.0377,14.4283,99,25,69.51199999999996,3.55
371,cadale,SO,2023-11-08 20:13:56,2.7603,46.3222,98,80,81.12200000000004,4.33
372,san miguel el alto,MX,2023-11-08 20:13:56,21.0167,-102.35,9,34,65.22799999999997,1.9
373,sos'va,RU,2023-11-08 20:13:57,59.1766,61.8558,100,90,35.33000000000004,2.68
374,san francisco telixtlahuaca,MX,2023-11-08 20:13:57,17.3,-96.9,50,96,61.71799999999999,1.78
375,benghazi,LY,2023-11-08 20:13:57,32.1167,20.0667,100,72,72.5,1.66
376,ancud,CL,2023-11-08 20:07:32,-41.8697,-73.8203,88,90,46.23800000000004,2.49
377,ribeira brava,PT,2023-11-08 20:13:57,32.65,-17.0667,32,63,65.984,1.2
378,salmon arm,CA,2023-11-08 20:13:58,50.6998,-119.3024,69,93,35.185999999999964,1.03
379,urucui,BR,2023-11-08 20:13:58,-7.2294,-44.5561,5,64,79.17799999999997,1.02
380,praia da vitoria,PT,2023-11-08 20:05:59,38.7333,-27.0667,75,100,66.01999999999995,2.11
381,fukuecho,JP,2023-11-08 20:13:58,32.6881,128.8419,100,78,70.79000000000002,6.09
382,otjiwarongo,NA,2023-11-08 20:13:58,-20.4637,16.6477,0,21,68.792,5.11
383,ghat,LY,2023-11-08 20:13:59,24.9647,10.1728,96,18,69.06199999999995,2.74
384,wodonga,AU,2023-11-08 20:10:39,-36.1167,146.8833,85,100,80.54600000000005,2.56
385,vila velha,BR,2023-11-08 20:10:16,-20.3297,-40.2925,75,83,68.21600000000001,1.03
386,tramandai,BR,2023-11-08 20:13:59,-29.9847,-50.1336,83,81,69.98000000000005,1.45
387,kuta,ID,2023-11-08 20:09:03,-8.7233,115.1723,20,74,86.26999999999995,4.63
388,kununurra,AU,2023-11-08 20:11:00,-15.7667,128.7333,68,36,98.85199999999998,4.12
389,yeppoon,AU,2023-11-08 20:08:44,-23.1333,150.7333,0,52,84.25399999999996,6.04
390,statesboro,US,2023-11-08 20:10:50,32.4488,-81.7832,0,94,63.75199999999998,0
391,timimoun,DZ,2023-11-08 20:14:00,29.2639,0.231,18,53,66.27200000000005,7.53
392,manavalakurichi,IN,2023-11-08 20:14:00,8.1333,77.3,94,80,79.51999999999995,1.56
393,shihezi,CN,2023-11-08 20:14:00,44.3,86.0333,72,33,41.648000000000025,0.7
394,bonnyville,CA,2023-11-08 20:14:00,54.2668,-110.735,86,85,29.785999999999966,4.62
395,terbanggi besar,ID,2023-11-08 20:14:00,-4.8667,105.2333,99,47,92.20999999999998,3.91
396,formiga,BR,2023-11-08 20:13:42,-20.4644,-45.4264,0,33,70.05199999999998,1.51
397,saint-pierre,RE,2023-11-08 20:06:48,-21.3393,55.4781,0,69,78.83599999999997,2.06
398,angaur state,PW,2023-11-08 20:08:41,6.906,134.13,50,68,85.06400000000004,5.37
399,victorica,AR,2023-11-08 20:14:01,-36.2151,-65.4359,19,34,59.917999999999985,3.51
400,hastings,GB,2023-11-08 20:14:01,50.8552,0.5729,100,75,46.417999999999985,4.84
401,ugoofaaru,MV,2023-11-08 20:11:20,5.6667,73,100,88,78.29600000000005,3.76
402,chonchi,CL,2023-11-08 20:10:49,-42.6128,-73.8092,94,96,46.38200000000002,0.98
403,kavaratti,IN,2023-11-08 20:14:02,10.5669,72.642,100,68,83.96600000000001,3.22
404,guiuan,PH,2023-11-08 20:09:32,11.0333,125.7247,63,75,83.642,4.14
405,lambesc,FR,2023-11-08 20:14:02,43.6531,5.2628,75,81,53.47400000000002,3.09
406,dassa-zoume,BJ,2023-11-08 20:14:02,7.75,2.1833,71,92,75.72200000000004,1.62
407,zhongshan,CN,2023-11-08 20:14:03,21.3226,110.5829,43,75,81.68000000000004,6.2
408,imbituba,BR,2023-11-08 20:14:03,-28.24,-48.6703,100,91,68.97200000000004,2.79
409,namtsy,RU,2023-11-08 20:14:03,62.7161,129.6658,69,91,-10.46200000000001,0.64
410,qamdo,CN,2023-11-08 20:10:09,31.1667,97.2333,41,42,29.174000000000014,0.58
411,bamberg,DE,2023-11-08 20:14:04,49.8795,10.8863,56,96,42.69199999999999,2.67
412,qarauyl,KZ,2023-11-08 20:14:04,48.9451,79.255,18,27,39.63200000000002,2.27
413,mingguang,CN,2023-11-08 20:14:04,32.7802,117.9638,100,54,65.22799999999997,2.7
414,siler city,US,2023-11-08 20:14:04,35.7235,-79.4622,0,82,62.00600000000003,0
415,tabou,CI,2023-11-08 20:14:05,4.423,-7.3528,100,90,76.60399999999996,2.28
416,ati,TD,2023-11-08 20:14:05,13.2154,18.3353,78,18,79.66400000000004,3.7
417,san patricio,US,2023-11-08 20:11:19,28.017,-97.5169,38,82,78.11600000000001,5.3
418,beroroha,MG,2023-11-08 20:14:05,-21.6667,45.1667,25,68,78.90800000000002,0.96
419,el alto,PE,2023-11-08 20:14:05,-4.2714,-81.2147,26,82,66.70399999999995,8.67
420,kulhudhuffushi,MV,2023-11-08 20:14:06,6.6221,73.07,100,84,79.41199999999995,3.39
421,tuburan,PH,2023-11-08 20:14:06,6.6439,122.2736,88,76,91.75999999999999,3
422,belmonte,BR,2023-11-08 20:14:06,-15.8631,-38.8828,0,78,72.76999999999995,2.46
423,gaalkacyo,SO,2023-11-08 20:14:07,6.7697,47.4308,100,78,74.40800000000002,3.64
424,choszczno,PL,2023-11-08 20:14:07,53.169,15.4205,100,84,42.727999999999966,4.99
425,kenai,US,2023-11-08 20:09:12,60.5544,-151.2583,100,98,35.41999999999996,0
426,katsuren-haebaru,JP,2023-11-08 20:14:07,26.3369,127.8719,75,73,84.48800000000006,6.69
427,aykhal,RU,2023-11-08 20:14:07,66,111.5,76,85,1.6160000000000068,6.12
428,miandrarivo,,,,,,,,
429,gariaband,IN,2023-11-08 20:14:08,20.635,82.0614,51,48,74.13800000000005,0.73
430,whakatane,NZ,2023-11-08 20:14:08,-37.9585,176.9854,56,68,68.14399999999998,1.79
431,ola,RU,2023-11-08 20:07:46,59.5833,151.2833,6,70,7.051999999999975,4.25
432,san julian,MX,2023-11-08 20:14:08,21.0167,-102.1667,9,33,63.03200000000002,1.91
433,vernon,CA,2023-11-08 20:11:12,50.2581,-119.2691,27,85,41.01799999999999,0.45
434,aral,CN,2023-11-08 20:10:31,40.5156,81.2636,100,18,51.35,1.18
435,mount isa,AU,2023-11-08 20:12:05,-20.7333,139.5,40,32,96.83599999999997,6.17
436,romodanovo,RU,2023-11-08 20:14:09,54.4275,45.3296,100,90,47.35399999999995,2.28
437,gazojak,TM,2023-11-08 20:14:09,41.1875,61.4036,4,58,48.811999999999955,2.67
438,uacu cungo,AO,2023-11-08 20:14:09,-11.3634,15.1208,100,96,64.65199999999999,0.99
439,brotas,BR,2023-11-08 20:14:10,-22.2842,-48.1267,13,45,74.174,1.65
440,tazovsky,RU,2023-11-08 20:08:02,67.4667,78.7,100,90,29.425999999999988,8.28
441,thulamahashi,ZA,2023-11-08 20:14:10,-24.7246,31.1994,14,92,61.57400000000001,0.39
442,bayan nur,,,,,,,,
443,la fleche,FR,2023-11-08 20:14:10,47.6982,-0.0755,92,89,50.522000000000034,3.26
444,san antonio del estrecho,,,,,,,,
445,kolonia,DE,2023-11-08 20:10:39,50.9333,6.95,100,85,52.71799999999999,4.12
446,kupang,ID,2023-11-08 20:14:11,-10.1667,123.5833,20,62,92.24600000000005,5.14
447,acapulco de juarez,MX,2023-11-08 20:07:49,16.8634,-99.8901,6,83,81.51799999999999,2.9
448,mohr,DE,2023-11-08 20:14:11,54.3528,9.7167,100,94,48.55999999999998,5.66
449,gobabis,NA,2023-11-08 20:14:11,-22.45,18.9667,1,18,67.51400000000004,3.97
450,emerald,AU,2023-11-08 20:09:17,-23.5333,148.1667,9,40,85.60399999999996,3.02
451,rio grande,BR,2023-11-08 20:08:53,-32.035,-52.0986,91,95,65.20999999999998,4.97
452,simanggang,MY,2023-11-08 20:14:12,1.2472,111.4528,100,97,76.208,0.62
453,najaf,IQ,2023-11-08 20:14:12,31.9985,44.3398,0,72,57.25399999999995,2.57
454,sarmiento,AR,2023-11-08 20:14:12,-45.5882,-69.07,92,39,52.37599999999999,10.58
455,'ohonua,,,,,,,,
456,altamont,US,2023-11-08 20:04:02,42.2068,-121.7372,0,83,33.674000000000014,1.54
457,puerto lempira,HN,2023-11-08 20:14:13,15.2667,-83.7667,96,87,78.74600000000005,0.86
458,dwarka,IN,2023-11-08 20:11:48,22.2394,68.9678,2,53,83.174,3.93
459,tsiombe,MG,2023-11-08 20:05:42,-25.3,45.4833,100,71,76.29800000000003,1.86
460,kwale,NG,2023-11-08 20:14:13,5.7063,6.4374,100,97,74.87599999999999,1.21
461,karasburg,NA,2023-11-08 20:14:14,-28.0167,18.75,0,24,63.33800000000005,1.8
462,novoishimskiy,KZ,2023-11-08 20:14:14,53.1981,66.7694,74,72,37.346000000000046,1.41
463,at-bashi,KG,2023-11-08 20:14:14,41.1702,75.8106,100,63,39.36199999999995,0.41
464,malpica,ES,2023-11-08 20:14:14,43.3228,-8.8105,34,78,56.60600000000003,5.16
465,funafuti,TV,2023-11-08 20:09:41,-8.5243,179.1942,100,89,84.46999999999997,0
466,yaren,NR,2023-11-08 20:09:48,-0.5472,166.916,99,78,84.65,8.51
467,kete krachi,GH,2023-11-08 20:14:15,7.7939,-0.0498,98,82,79.10600000000002,3.95
468,nicoya,CR,2023-11-08 20:14:12,10.1483,-85.452,97,92,76.15399999999995,0.74
469,kiunga,PG,2023-11-08 20:14:15,-6.1219,141.2906,49,48,92.80399999999995,1.64
470,duong dong,VN,2023-11-08 20:14:16,10.2167,103.9667,40,89,84.46999999999997,2.57
471,axim,GH,2023-11-08 20:14:16,4.8699,-2.2405,90,86,78.674,2.66
472,yangor,,,,,,,,
473,nkurenkuru,,,,,,,,
474,staraya kulatka,RU,2023-11-08 20:14:16,52.7167,47.6167,100,96,43.772000000000034,2.35
475,pemangkat,ID,2023-11-08 20:14:17,1.1667,108.9667,100,82,80.47400000000002,1.63
476,huarmey,PE,2023-11-08 20:14:17,-10.0681,-78.1522,16,84,66.75800000000001,3.62
477,island harbour,GB,2023-11-08 20:14:17,50.724,-1.2758,100,85,53.20399999999995,2.24
478,hanover,DE,2023-11-08 20:14:17,52.3705,9.7332,75,94,49.24399999999997,4.63
479,dunedin,NZ,2023-11-08 20:14:18,-45.8742,170.5036,82,80,52.069999999999965,3.13
480,kodok,,,,,,,,
481,martapura,ID,2023-11-08 20:08:35,-3.4167,114.85,40,70,88.15999999999998,2.06
482,las trojes,HN,2023-11-08 20:14:18,14.0667,-85.9833,100,99,67.316,1.12
483,tokmok,KG,2023-11-08 20:14:18,42.8417,75.3016,100,91,46.75999999999998,3.3
484,louveira,BR,2023-11-08 20:09:32,-23.0864,-46.9506,35,51,76.92799999999997,1.86
485,port isabel,US,2023-11-08 20:14:19,26.0734,-97.2086,0,85,79.10600000000002,4.12
486,port augusta,AU,2023-11-08 20:13:06,-32.5,137.7667,1,18,92.71400000000003,1.97
487,santa marta,CO,2023-11-08 20:14:19,11.2408,-74.199,75,73,86.16199999999995,2.06
488,lazaro cardenas,MX,2023-11-08 20:09:41,17.9583,-102.2,15,83,80.33000000000004,2.14
489,basco,PH,2023-11-08 20:14:20,20.4487,121.9702,60,82,81.35600000000002,8.05
490,illizi,DZ,2023-11-08 20:14:20,26.4833,8.4667,100,14,74.22799999999997,2.96
491,northam,GB,2023-11-08 20:14:20,51.0333,-4.2167,54,93,50.935999999999964,8.98
492,devinuwara,,,,,,,,
493,san antonio de pale,GQ,2023-11-08 20:07:25,-1.4014,5.6325,51,75,79.06999999999996,4.53
494,guatrache,AR,2023-11-08 20:14:21,-37.6678,-63.5302,0,37,53.366000000000014,3.22
495,magadan,RU,2023-11-08 20:08:12,59.5667,150.8,4,70,5.882000000000016,2.97
496,naze,JP,2023-11-08 20:09:49,28.3667,129.4833,100,64,74.35399999999996,4.77
497,parabel',RU,2023-11-08 20:14:21,58.6978,81.4825,95,90,28.18399999999999,4.92
498,lautoka,FJ,2023-11-08 20:14:21,-17.6167,177.4667,100,69,82.52599999999998,2.57
499,mitsamiouli,KM,2023-11-08 20:14:22,-11.3847,43.2844,84,78,80.18599999999998,4.25
500,fortaleza,BR,2023-11-08 20:14:22,-3.7227,-38.5247,75,69,82.79600000000005,7.2
501,uliastay,MN,2023-11-08 20:14:22,47.7417,96.8444,100,83,14.053999999999949,1.35
502,ilebo,CD,2023-11-08 20:14:22,-4.3167,20.5833,100,98,70.88000000000005,0.69
503,timaru,NZ,2023-11-08 20:14:22,-44.4,171.25,100,84,53.34800000000003,4.47
504,banjarmasin,ID,2023-11-08 20:14:23,-3.3244,114.591,100,39,88.21400000000003,1.32
505,shangri-la,,,,,,,,
506,port moresby,PG,2023-11-08 20:11:29,-9.4431,147.1797,47,67,82.54399999999998,5.93
507,harper,LR,2023-11-08 20:14:23,4.375,-7.7169,65,89,77.19800000000004,2.69
508,spring creek,US,2023-11-08 20:11:59,40.7266,-115.5859,0,47,36.57200000000004,1.48
509,siavonga,ZM,2023-11-08 20:14:24,-16.5382,28.7088,78,68,79.17799999999997,1.73
510,mandiana,GN,2023-11-08 20:14:24,10.6333,-8.6833,68,64,78.99800000000002,1.89
511,yibin,CN,2023-11-08 20:14:24,28.7667,104.6238,44,63,71.79800000000003,1.16
512,nemuro,JP,2023-11-08 20:06:36,43.3236,145.575,100,70,51.22400000000002,9.69
513,nouadhibou,MR,2023-11-08 20:14:25,20.931,-17.0347,80,78,67.71199999999996,9.2
514,broken hill,AU,2023-11-08 20:06:55,-31.95,141.4333,1,17,91.66999999999996,3.8
515,tarrafal,CV,2023-11-08 20:14:25,15.2833,-23.7667,100,69,76.26199999999996,8.27
516,peringat,MY,2023-11-08 20:14:25,6.0333,102.2833,100,72,86.19800000000004,0.85
517,minas de marcona,PE,2023-11-08 20:08:11,-15.2119,-75.1103,58,84,58.208000000000006,4.03
518,tongliao,CN,2023-11-08 20:14:26,43.6125,122.2653,46,68,23.630000000000038,6.19
519,villa gesell,AR,2023-11-08 20:09:28,-37.2639,-56.973,0,66,58.31600000000001,5.81
520,san jose del cabo,MX,2023-11-08 20:11:20,23.0589,-109.6977,100,83,81.01400000000004,4.63
521,awjilah,LY,2023-11-08 20:14:26,29.1081,21.2869,49,53,67.78399999999999,2.24
522,baoro,CF,2023-11-08 20:12:08,5.6667,15.9667,100,94,68.99000000000002,0.24
523,zavety il'icha,RU,2023-11-08 20:14:27,49.0294,140.2494,100,90,35.438000000000045,3.1
524,howard springs,AU,2023-11-08 20:11:12,-12.497,131.047,22,60,93.14600000000004,3.69
525,nishinoomote,JP,2023-11-08 20:14:27,30.7333,131,100,62,72.66199999999995,4.4
526,kuandian,CN,2023-11-08 20:14:27,40.7286,124.7847,100,90,38.93000000000004,2.69
527,"laikit, laikit ii (dimembe)",ID,2023-11-08 20:14:27,1.4792,124.9735,40,74,83.51600000000002,2.57
528,hotan,CN,2023-11-08 20:14:28,37.0997,79.9269,22,17,51.38599999999997,0.4
529,chunskiy,RU,2023-11-08 20:14:28,56.0815,99.6342,32,75,11.948000000000025,1.22
530,urcos,PE,2023-11-08 20:14:28,-13.6861,-71.6228,100,78,53.76199999999996,2.31
531,new norfolk,AU,2023-11-08 20:13:36,-42.7826,147.0587,28,37,72.98599999999996,1.6
532,tres palos,MX,2023-11-08 20:14:28,18.1833,-101.6167,37,97,73.68800000000005,1.39
533,dhangadhi,NP,2023-11-08 20:11:04,28.7079,80.5961,0,51,70.25,1.26
534,jasper,US,2023-11-08 20:14:29,37.2001,-94.3502,0,72,63.28399999999999,5.14
535,acarau,BR,2023-11-08 20:11:05,-2.8856,-40.12,33,82,79.84399999999997,8.13
536,abepura,ID,2023-11-08 20:14:29,-2.6333,140.5833,40,49,92.48000000000005,10.29
537,basoko,CD,2023-11-08 20:07:28,1.2391,23.616,100,95,72.98599999999996,1.22
538,elliot lake,CA,2023-11-08 20:14:29,46.3834,-82.6331,100,95,28.04000000000002,5.29
539,xunchang,CN,2023-11-08 20:14:30,28.4543,104.715,16,65,70.64600000000004,0.91
540,tsafe,NG,2023-11-08 20:14:30,11.9553,6.9223,70,23,72.19399999999997,1.82
541,boda,CF,2023-11-08 20:14:30,4.3189,17.4695,100,93,72.33800000000005,0.92
542,vadso,NO,2023-11-08 20:07:09,70.0744,29.7487,100,74,27.032000000000018,3.6
543,sheridan,US,2023-11-08 20:14:31,44.8333,-106.9173,0,48,36.96799999999998,3.09
544,pyetrykaw,BY,2023-11-08 20:14:31,52.1289,28.4921,40,96,39.38000000000004,2.73
545,chichimila,MX,2023-11-08 20:14:31,20.6167,-88.2167,84,89,69.80000000000001,1.33
546,bireun,ID,2023-11-08 20:14:32,5.203,96.7009,100,72,84.07400000000001,1.09
547,pionerskiy,RU,2023-11-08 20:14:32,54.9508,20.2275,91,88,48.41600000000001,7.88
548,fonadhoo,,,,,,,,
549,hailar,CN,2023-11-08 20:14:32,49.2,119.7,99,87,11.138000000000044,0.7
550,mantua,IT,2023-11-08 20:14:32,45.1667,10.7833,28,78,47.62400000000001,0.64
551,lepsy,KZ,2023-11-08 20:14:33,46.235,78.9456,100,44,47.858000000000004,2.75
552,smithers,CA,2023-11-08 20:08:19,54.7804,-127.1743,99,95,36.37400000000001,1.14
553,sao vicente,BR,2023-11-08 20:14:33,-23.9631,-46.3919,100,26,86.54000000000002,1.51
554,ordos,,,,,,,,
555,bridge city,US,2023-11-08 20:14:33,30.0208,-93.8457,0,88,71.88800000000005,3.6
556,karatuzskoye,RU,2023-11-08 20:14:34,53.6072,92.8667,9,81,6.656000000000027,1.79
557,faya-largeau,TD,2023-11-08 20:14:34,17.9257,19.1043,7,26,75.29000000000002,6.74
558,kiama,AU,2023-11-08 20:14:34,-34.6833,150.8667,94,95,69.27799999999996,3.44
559,kouroussa,GN,2023-11-08 20:14:34,10.65,-9.8833,69,68,75.48800000000006,1.23
560,safi,MA,2023-11-08 20:14:35,32.1667,-8.8333,100,72,53.58200000000002,3.8
561,djibo,BF,2023-11-08 20:14:35,14.1022,-1.6306,97,21,82.61600000000001,2.73
562,kamaishi,JP,2023-11-08 20:14:35,39.2667,141.8833,95,65,59.01799999999999,4.15
563,bani walid,LY,2023-11-08 20:14:35,31.7566,13.9942,100,88,65.89399999999998,4.86
564,hasaki,JP,2023-11-08 20:14:35,35.7333,140.8333,23,52,68.66600000000001,2.24
565,cowra,AU,2023-11-08 20:14:36,-33.8333,148.6833,98,55,75.05600000000004,7.71
566,selkirk,CA,2023-11-08 20:14:36,50.1436,-96.8845,100,94,34.141999999999996,2.24
567,villamontes,BO,2023-11-08 20:14:36,-21.25,-63.5,100,94,75.57799999999997,2.13
568,salinas,US,2023-11-08 20:12:07,36.6777,-121.6555,0,73,58.748000000000026,2.06
569,booue,GA,2023-11-08 20:14:36,-0.0921,11.9385,99,98,72.68000000000004,0.55
570,sombrio,BR,2023-11-08 20:14:37,-29.1139,-49.6167,95,81,75.2,2.49
571,nieuw amsterdam,SR,2023-11-08 20:14:37,5.8833,-55.0833,41,87,80.29399999999998,4.65
572,fochville,ZA,2023-11-08 20:14:37,-26.4886,27.4939,0,45,61.25,3.67
573,saipan,MP,2023-11-08 20:12:03,15.1355,145.701,40,70,88.77200000000005,8.75
574,bathsheba,BB,2023-11-08 20:14:37,13.2167,-59.5167,20,89,81.48200000000003,5.14
575,christchurch,NZ,2023-11-08 20:10:57,-43.5333,172.6333,75,61,61.17799999999997,7.2
576,genhe,CN,2023-11-08 20:09:43,50.7833,121.5167,64,59,15.080000000000041,1.13
577,mbandaka,CD,2023-11-08 20:14:38,0.0487,18.2603,98,96,72.842,0.99
578,florida,US,2023-11-08 20:14:38,28.7505,-82.5001,0,93,67.00999999999999,0
579,tingo maria,PE,2023-11-08 20:14:38,-9.2895,-76.0088,72,94,70.64600000000004,1.12
580,champerico,GT,2023-11-08 20:14:39,14.3,-91.9167,93,80,81.75199999999998,1.11
581,el fasher,SD,2023-11-08 20:14:39,13.6279,25.3494,85,25,75.25399999999996,3.37
582,mancio lima,BR,2023-11-08 20:14:39,-7.6142,-72.8958,100,94,75.542,1.54
583,tindouf,DZ,2023-11-08 20:14:39,27.6711,-8.1474,0,32,65.89399999999998,5.02
584,kampene,CD,2023-11-08 20:14:39,-3.6,26.6667,100,99,69.04399999999998,0.59
585,belokany,AZ,2023-11-08 20:14:40,41.7258,46.4083,83,50,44.95999999999998,1.47
586,takoradi,GH,2023-11-08 20:14:40,4.8845,-1.7554,99,86,78.65600000000003,2.98
587,mil'kovo,RU,2023-11-08 20:10:06,55.6078,37.7956,89,96,43.32200000000004,0.91
588,ji parana,,,,,,,,
589,gizo,SB,2023-11-08 20:12:28,-8.103,156.8419,100,80,82.54399999999998,6.46
590,nantucket,US,2023-11-08 20:10:04,41.2835,-70.0995,0,65,42.27799999999996,5.14
591,carentan,FR,2023-11-08 20:14:40,49.3031,-1.2481,100,86,48.14600000000005,4.77
592,kabalo,CD,2023-11-08 20:14:41,-6.05,26.9167,95,95,70.05199999999998,0.95
593,mukalla,YE,2023-11-08 20:11:21,14.5425,49.1242,20,47,79.05199999999998,1.4
594,saudarkrokur,IS,2023-11-08 20:10:47,65.7461,-19.6394,14,87,33.04399999999997,2.25
595,shalkar,KZ,2023-11-08 20:14:41,47.8288,59.6258,73,90,45.122000000000035,4.81
596,daru,PG,2023-11-08 20:14:08,-9.0763,143.2092,68,60,83.80399999999995,4.76
597,fuvahmulah,,,,,,,,
598,davidson,US,2023-11-08 20:14:41,36.1501,-86.7833,0,61,74.11999999999996,4.63
599,kisangani,CD,2023-11-08 20:14:42,0.5167,25.2,100,100,69.83599999999997,0.29
600,portage la prairie,CA,2023-11-08 20:14:35,49.9728,-98.2926,100,72,34.37599999999999,7.35
601,rukban,,,,,,,,
602,kone,NC,2023-11-08 20:11:57,-21.0595,164.8658,71,47,80.16799999999998,6.32
